{
  "stadiums": [
    {
      "team": "ARI",
      "name": "Chase Field",
      "city": "Phoenix",
      "lat": 33.4455,
      "lon": -112.0667,
      "altitude_ft": 1082,
      "roof": "retractable",
      "hr_park_factor": 103,
      "cf_bearing_deg": 0
    },
    {
      "team": "ATL",
      "name": "Truist Park",
      "city": "Atlanta",
      "lat": 33.8908,
      "lon": -84.4678,
      "altitude_ft": 1050,
      "roof": "open",
      "hr_park_factor": 101,
      "cf_bearing_deg": 180
    },
    {
      "team": "BAL",
      "name": "Oriole Park at Camden Yards",
      "city": "Baltimore",
      "lat": 39.2838,
      "lon": -76.6216,
      "altitude_ft": 30,
      "roof": "open",
      "hr_park_factor": 105,
      "cf_bearing_deg": 45
    },
    {
      "team": "BOS",
      "name": "Fenway Park",
      "city": "Boston",
      "lat": 42.3467,
      "lon": -71.0972,
      "altitude_ft": 20,
      "roof": "open",
      "hr_park_factor": 108,
      "cf_bearing_deg": 67
    },
    {
      "team": "CHC",
      "name": "Wrigley Field",
      "city": "Chicago",
      "lat": 41.9484,
      "lon": -87.6553,
      "altitude_ft": 600,
      "roof": "open",
      "hr_park_factor": 102,
      "cf_bearing_deg": 0
    },
    {
      "team": "CWS",
      "name": "Guaranteed Rate Field",
      "city": "Chicago",
      "lat": 41.8299,
      "lon": -87.6338,
      "altitude_ft": 595,
      "roof": "open",
      "hr_park_factor": 107,
      "cf_bearing_deg": 225
    },
    {
      "team": "CIN",
      "name": "Great American Ball Park",
      "city": "Cincinnati",
      "lat": 39.0974,
      "lon": -84.5065,
      "altitude_ft": 490,
      "roof": "open",
      "hr_park_factor": 113,
      "cf_bearing_deg": 0
    },
    {
      "team": "CLE",
      "name": "Progressive Field",
      "city": "Cleveland",
      "lat": 41.4962,
      "lon": -81.6852,
      "altitude_ft": 650,
      "roof": "open",
      "hr_park_factor": 96,
      "cf_bearing_deg": 180
    },
    {
      "team": "COL",
      "name": "Coors Field",
      "city": "Denver",
      "lat": 39.7561,
      "lon": -104.9942,
      "altitude_ft": 5200,
      "roof": "open",
      "hr_park_factor": 118,
      "cf_bearing_deg": 45
    },
    {
      "team": "DET",
      "name": "Comerica Park",
      "city": "Detroit",
      "lat": 42.3390,
      "lon": -83.0485,
      "altitude_ft": 600,
      "roof": "open",
      "hr_park_factor": 93,
      "cf_bearing_deg": 180
    },
    {
      "team": "HOU",
      "name": "Minute Maid Park",
      "city": "Houston",
      "lat": 29.7573,
      "lon": -95.3555,
      "altitude_ft": 42,
      "roof": "retractable",
      "hr_park_factor": 104,
      "cf_bearing_deg": 315
    },
    {
      "team": "KC",
      "name": "Kauffman Stadium",
      "city": "Kansas City",
      "lat": 39.0517,
      "lon": -94.4803,
      "altitude_ft": 820,
      "roof": "open",
      "hr_park_factor": 95,
      "cf_bearing_deg": 0
    },
    {
      "team": "LAA",
      "name": "Angel Stadium",
      "city": "Anaheim",
      "lat": 33.8003,
      "lon": -117.8827,
      "altitude_ft": 160,
      "roof": "open",
      "hr_park_factor": 97,
      "cf_bearing_deg": 45
    },
    {
      "team": "LAD",
      "name": "Dodger Stadium",
      "city": "Los Angeles",
      "lat": 34.0739,
      "lon": -118.2400,
      "altitude_ft": 515,
      "roof": "open",
      "hr_park_factor": 96,
      "cf_bearing_deg": 0
    },
    {
      "team": "MIA",
      "name": "loanDepot park",
      "city": "Miami",
      "lat": 25.7781,
      "lon": -80.2196,
      "altitude_ft": 7,
      "roof": "retractable",
      "hr_park_factor": 90,
      "cf_bearing_deg": 180
    },
    {
      "team": "MIL",
      "name": "American Family Field",
      "city": "Milwaukee",
      "lat": 43.0280,
      "lon": -87.9712,
      "altitude_ft": 620,
      "roof": "retractable",
      "hr_park_factor": 105,
      "cf_bearing_deg": 180
    },
    {
      "team": "MIN",
      "name": "Target Field",
      "city": "Minneapolis",
      "lat": 44.9818,
      "lon": -93.2775,
      "altitude_ft": 830,
      "roof": "open",
      "hr_park_factor": 100,
      "cf_bearing_deg": 0
    },
    {
      "team": "NYM",
      "name": "Citi Field",
      "city": "New York",
      "lat": 40.7571,
      "lon": -73.8458,
      "altitude_ft": 15,
      "roof": "open",
      "hr_park_factor": 94,
      "cf_bearing_deg": 45
    },
    {
      "team": "NYY",
      "name": "Yankee Stadium",
      "city": "New York",
      "lat": 40.8296,
      "lon": -73.9262,
      "altitude_ft": 55,
      "roof": "open",
      "hr_park_factor": 112,
      "cf_bearing_deg": 67
    },
    {
      "team": "OAK",
      "name": "Oakland Coliseum",
      "city": "Oakland",
      "lat": 37.7516,
      "lon": -122.2005,
      "altitude_ft": 5,
      "roof": "open",
      "hr_park_factor": 92,
      "cf_bearing_deg": 180
    },
    {
      "team": "PHI",
      "name": "Citizens Bank Park",
      "city": "Philadelphia",
      "lat": 39.9061,
      "lon": -75.1665,
      "altitude_ft": 20,
      "roof": "open",
      "hr_park_factor": 110,
      "cf_bearing_deg": 45
    },
    {
      "team": "PIT",
      "name": "PNC Park",
      "city": "Pittsburgh",
      "lat": 40.4469,
      "lon": -80.0057,
      "altitude_ft": 730,
      "roof": "open",
      "hr_park_factor": 90,
      "cf_bearing_deg": 45
    },
    {
      "team": "SD",
      "name": "Petco Park",
      "city": "San Diego",
      "lat": 32.7076,
      "lon": -117.1570,
      "altitude_ft": 15,
      "roof": "open",
      "hr_park_factor": 92,
      "cf_bearing_deg": 0
    },
    {
      "team": "SF",
      "name": "Oracle Park",
      "city": "San Francisco",
      "lat": 37.7786,
      "lon": -122.3893,
      "altitude_ft": 5,
      "roof": "open",
      "hr_park_factor": 85,
      "cf_bearing_deg": 45
    },
    {
      "team": "SEA",
      "name": "T-Mobile Park",
      "city": "Seattle",
      "lat": 47.5914,
      "lon": -122.3325,
      "altitude_ft": 20,
      "roof": "retractable",
      "hr_park_factor": 93,
      "cf_bearing_deg": 180
    },
    {
      "team": "STL",
      "name": "Busch Stadium",
      "city": "St. Louis",
      "lat": 38.6226,
      "lon": -90.1928,
      "altitude_ft": 465,
      "roof": "open",
      "hr_park_factor": 97,
      "cf_bearing_deg": 180
    },
    {
      "team": "TB",
      "name": "Tropicana Field",
      "city": "St. Petersburg",
      "lat": 27.7682,
      "lon": -82.6534,
      "altitude_ft": 40,
      "roof": "dome",
      "hr_park_factor": 88,
      "cf_bearing_deg": 315
    },
    {
      "team": "TEX",
      "name": "Globe Life Field",
      "city": "Arlington",
      "lat": 32.7474,
      "lon": -97.0844,
      "altitude_ft": 545,
      "roof": "retractable",
      "hr_park_factor": 100,
      "cf_bearing_deg": 0
    },
    {
      "team": "TOR",
      "name": "Rogers Centre",
      "city": "Toronto",
      "lat": 43.6414,
      "lon": -79.3894,
      "altitude_ft": 270,
      "roof": "retractable",
      "hr_park_factor": 103,
      "cf_bearing_deg": 315
    },
    {
      "team": "WSH",
      "name": "Nationals Park",
      "city": "Washington",
      "lat": 38.8730,
      "lon": -77.0074,
      "altitude_ft": 25,
      "roof": "open",
      "hr_park_factor": 99,
      "cf_bearing_deg": 45
    }
  ]
}
